City_ID,City,Lat,Lng,Max Temp,Humidity,Cloudiness,Wind Speed,Country,Date
0,aasiaat,68.7098,-52.8699,3.7200000000000273,79,70,5.28,GL,2023-06-28
1,port-aux-francais,-49.35,70.2167,3.930000000000007,91,100,5.86,TF,2023-06-28
2,utrik,11.2278,169.8474,27.930000000000007,74,100,9.09,MH,2023-06-28
3,grytviken,-54.2811,-36.5092,-6.199999999999989,75,17,4.37,GS,2023-06-28
4,bengkulu,-3.8004,102.2655,24.220000000000027,92,28,2.6,ID,2023-06-28
5,tofol,5.3248,163.0078,28.24000000000001,76,100,5.35,FM,2023-06-28
6,puerto natales,-51.7236,-72.4875,-0.75,100,75,0.51,CL,2023-06-28
7,sohagi,24.9833,81.7,30.230000000000018,69,100,0.92,IN,2023-06-28
8,tazovsky,67.4667,78.7,8.990000000000009,77,93,3.95,RU,2023-06-28
9,waitangi,-43.9535,-176.5597,12.120000000000005,96,100,0.89,NZ,2023-06-28
10,bethel,41.3712,-73.414,27.200000000000045,76,75,4.63,US,2023-06-28
11,west island,-12.1568,96.8225,25.99000000000001,73,40,4.12,CC,2023-06-28
12,kudahuvadhoo,2.6708,72.8944,27.660000000000025,72,90,3.69,MV,2023-06-28
13,stanley,54.868,-1.6985,16.27000000000004,88,75,3.6,GB,2023-06-28
14,atafu village,-8.5421,-172.5159,28.75,75,91,7.31,TK,2023-06-28
15,kem',64.9555,34.5793,13.160000000000025,63,96,3.06,RU,2023-06-28
16,sydney,-33.8679,151.2073,10.350000000000023,78,45,7.72,AU,2023-06-28
17,yellowknife,62.456,-114.3525,26.29000000000002,44,20,3.09,CA,2023-06-28
18,bilibino,68.0546,166.4372,10.710000000000036,55,100,1.44,RU,2023-06-28
19,edinburgh of the seven seas,-37.0676,-12.3116,15.650000000000034,96,90,9.22,SH,2023-06-28
20,iqaluit,63.7506,-68.5145,6.850000000000023,61,75,7.72,CA,2023-06-28
21,eldorado,-23.7869,-54.2836,24.310000000000002,56,0,1.67,BR,2023-06-28
22,lihue,21.9789,-159.3672,27.77000000000004,70,75,6.17,US,2023-06-28
23,quepos,9.4236,-84.1652,28.939999999999998,76,60,2.13,CR,2023-06-28
24,flying fish cove,-10.4217,105.6791,23.82000000000005,83,100,6.17,CX,2023-06-28
25,undurkhaan,47.3194,110.6556,11.689999999999998,44,54,1.55,MN,2023-06-28
26,daqing,46.5833,125.0,20.02000000000004,88,100,1.79,CN,2023-06-28
27,hermanus,-34.4187,19.2345,13.210000000000036,80,9,3.36,ZA,2023-06-28
28,qaqortoq,60.7167,-46.0333,5.7900000000000205,89,100,1.24,GL,2023-06-28
29,klyuchi,52.2667,79.1667,13.79000000000002,78,98,7.2,RU,2023-06-28
30,georgetown,5.4112,100.3354,26.970000000000027,89,20,1.03,MY,2023-06-28
31,st. john's,47.5649,-52.7093,24.660000000000025,79,75,5.14,CA,2023-06-28
32,port mathurin,-19.6833,63.4167,23.54000000000002,64,9,5.87,MU,2023-06-28
33,turbat,26.0023,63.044,30.700000000000045,67,100,3.48,PK,2023-06-28
34,port alfred,-33.5906,26.891,17.5,61,6,4.27,ZA,2023-06-28
35,adamstown,-25.066,-130.1015,19.80000000000001,70,100,11.49,PN,2023-06-28
36,northam,51.0333,-4.2167,17.439999999999998,94,75,4.16,GB,2023-06-28
37,la passe,45.5549,-0.8967,24.129999999999995,71,12,5.03,FR,2023-06-28
38,ilulissat,69.2167,-51.1,7.010000000000048,70,20,4.12,GL,2023-06-28
39,college,64.8569,-147.8028,20.879999999999995,59,75,2.06,US,2023-06-28
40,mananjary,-21.2167,48.3333,19.49000000000001,83,56,0.61,MG,2023-06-28
41,chaihe,44.7667,129.7,17.200000000000045,97,94,1.18,CN,2023-06-28
42,guichon,-32.35,-57.2,14.560000000000002,45,7,3.17,UY,2023-06-28
43,thompson,55.7435,-97.8558,22.090000000000032,64,75,4.12,CA,2023-06-28
44,albany,42.6001,-73.9662,23.430000000000007,80,75,0.45,US,2023-06-28
45,enewetak,11.3474,162.3373,28.02000000000004,81,97,8.73,MH,2023-06-28
46,quesnel,52.9999,-122.5029,27.28000000000003,34,0,1.03,CA,2023-06-28
47,pemangkat,1.1667,108.9667,26.189999999999998,83,49,3.04,ID,2023-06-28
48,pleasanton,37.6624,-121.8747,27.310000000000002,54,0,4.63,US,2023-06-28
49,hadibu,12.65,54.0333,26.090000000000032,79,95,10.02,YE,2023-06-28
50,puerto ayora,-0.7393,-90.3518,29.980000000000018,87,18,3.58,EC,2023-06-28
51,sevastopol,44.6,33.5333,20.560000000000002,57,0,0.45,UA,2023-06-28
52,portland,45.5234,-122.6762,27.83000000000004,49,0,2.68,US,2023-06-28
53,margate,51.3813,1.3862,21.600000000000023,78,100,1.79,GB,2023-06-28
54,kasongo-lunda,-6.4667,16.8167,23.79000000000002,55,0,0.94,CD,2023-06-28
55,parma,44.8027,10.329,24.879999999999995,61,46,5.14,IT,2023-06-28
56,walvis bay,-22.9575,14.5053,13.939999999999998,71,0,4.63,NA,2023-06-28
57,al jawf,29.5,38.75,30.57000000000005,17,0,3.68,SA,2023-06-28
58,cativa,9.3606,-79.8436,32.33000000000004,71,73,6.71,PA,2023-06-28
59,byron bay,-28.65,153.6167,16.510000000000048,68,95,5.4,AU,2023-06-28
60,minot air force base,48.4209,-101.3391,28.100000000000023,59,75,5.66,US,2023-06-28
61,dolores,-36.3132,-57.6792,11.510000000000048,56,0,4.22,AR,2023-06-28
62,ironwood,46.4547,-90.171,21.189999999999998,94,100,3.6,US,2023-06-28
63,sandnessjoen,66.0217,12.6316,19.29000000000002,82,20,2.06,NO,2023-06-28
64,taoudenni,22.6783,-3.9836,40.670000000000016,12,13,5.8,ML,2023-06-28
65,tiksi,71.6872,128.8694,8.720000000000027,85,91,0.39,RU,2023-06-28
66,changling,44.2653,124.0005,21.110000000000014,69,100,1.34,CN,2023-06-28
67,frenstat pod radhostem,49.5484,18.2108,15.230000000000018,82,100,1.03,CZ,2023-06-28
68,kingscliff,-28.2667,153.5667,18.890000000000043,59,100,2.06,AU,2023-06-28
69,pangai,-19.8,-174.35,24.060000000000002,73,20,5.14,TO,2023-06-28
70,longyearbyen,78.2186,15.6401,7.910000000000025,76,75,4.12,SJ,2023-06-28
71,lillehammer,61.1146,10.4674,18.730000000000018,67,100,1.61,NO,2023-06-28
72,margaret river,-33.95,115.0667,10.490000000000009,76,100,2.17,AU,2023-06-28
73,east london,-33.0153,27.9116,16.600000000000023,81,24,3.2,ZA,2023-06-28
74,kidal,18.4411,1.4078,38.32000000000005,13,14,4.58,ML,2023-06-28
75,cidreira,-30.1811,-50.2056,15.220000000000027,87,100,6.74,BR,2023-06-28
76,carnarvon,-24.8667,113.6333,13.480000000000018,49,0,8.12,AU,2023-06-28
77,bodaybo,57.8506,114.1933,12.090000000000032,86,100,0.9,RU,2023-06-28
78,armacao de buzios,-22.7469,-41.8817,28.03000000000003,80,0,5.98,BR,2023-06-28
79,ushuaia,-54.8,-68.3,-1.2099999999999795,91,5,2.06,AR,2023-06-28
80,port-vila,-17.7338,168.3219,16.78000000000003,100,40,0.51,VU,2023-06-28
81,vorgashor,67.5833,63.95,5.4500000000000455,66,13,2.88,RU,2023-06-28
82,paita,-5.0892,-81.1144,24.77000000000004,71,1,7.73,PE,2023-06-28
83,nuuk,64.1835,-51.7216,6.340000000000032,75,40,3.6,GL,2023-06-28
84,hasaki,35.7333,140.8333,24.010000000000048,95,90,1.94,JP,2023-06-28
85,pandan,14.0453,124.1694,26.640000000000043,85,100,2.59,PH,2023-06-28
86,isafjordur,66.0755,-23.124,5.840000000000032,89,100,4.25,IS,2023-06-28
87,aykhal,66.0,111.5,12.100000000000023,49,100,2.77,RU,2023-06-28
88,mount gambier,-37.8333,140.7667,8.330000000000041,79,100,3.01,AU,2023-06-28
89,sarmiento,-45.5882,-69.07,5.0400000000000205,63,100,0.4,AR,2023-06-28
90,eastham,41.8301,-69.9739,26.08000000000004,84,75,3.6,US,2023-06-28
91,mount isa,-20.7333,139.5,16.870000000000005,72,32,5.14,AU,2023-06-28
92,kuala tungkal,-0.8167,103.4667,24.150000000000034,93,55,2.17,ID,2023-06-28
93,korla,41.7597,86.1469,26.939999999999998,29,100,5.2,CN,2023-06-28
94,ikot ekpene,5.1794,7.7108,22.960000000000036,96,100,2.38,NG,2023-06-28
95,lincolnwood,42.0045,-87.7301,30.75,44,75,5.66,US,2023-06-28
96,whitehorse,60.7161,-135.0538,22.83000000000004,40,75,4.63,CA,2023-06-28
97,candelaria,13.9311,121.4233,25.77000000000004,94,98,1.61,PH,2023-06-28
98,anadyr,64.75,177.4833,8.28000000000003,93,100,1.0,RU,2023-06-28
99,pathein,16.7833,94.7333,26.510000000000048,88,99,2.34,MM,2023-06-28
100,north bay,46.3168,-79.4663,22.75,49,0,5.14,CA,2023-06-28
101,morant bay,17.8815,-76.4093,31.79000000000002,71,42,4.51,JM,2023-06-28
102,verkhniy mamon,50.1635,40.3832,16.99000000000001,89,100,4.22,RU,2023-06-28
103,vardenik,40.1393,45.4334,15.629999999999995,76,91,2.74,AM,2023-06-28
104,sitka,57.0531,-135.33,14.939999999999998,88,75,1.54,US,2023-06-28
105,selfoss,63.9331,-20.9971,8.910000000000025,85,91,12.26,IS,2023-06-28
106,meizhou,24.2977,116.1072,24.340000000000032,97,100,0.92,CN,2023-06-28
107,petropavlovsk-kamchatsky,53.0452,158.6483,11.330000000000041,94,75,1.0,RU,2023-06-28
108,moyynkum,44.2914,72.9469,23.140000000000043,31,95,4.21,KZ,2023-06-28
109,richards bay,-28.783,32.0377,20.29000000000002,63,7,6.73,ZA,2023-06-28
110,katsuura,35.1333,140.3,23.28000000000003,88,73,5.62,JP,2023-06-28
111,nikolayevsk-on-amure,53.1406,140.73,12.220000000000027,90,100,1.75,RU,2023-06-28
112,kodiak,57.79,-152.4072,8.730000000000018,93,100,2.06,US,2023-06-28
113,vernon,50.2581,-119.2691,30.420000000000016,33,15,1.03,CA,2023-06-28
114,uturoa,-16.7333,-151.4333,27.0,67,2,8.39,PF,2023-06-28
115,saint-philippe,-21.3585,55.7679,19.77000000000004,76,25,5.13,RE,2023-06-28
116,badger,64.8,-147.5333,20.840000000000032,60,100,2.06,US,2023-06-28
117,punta arenas,-53.15,-70.9167,2.0600000000000023,93,100,5.66,CL,2023-06-28
118,ipilan,8.8431,117.9033,26.83000000000004,84,99,2.37,PH,2023-06-28
119,papatowai,-46.5619,169.4708,9.110000000000014,88,100,5.83,NZ,2023-06-28
120,wailua homesteads,22.0669,-159.378,27.439999999999998,77,75,6.17,US,2023-06-28
121,dondo,-19.6094,34.7431,21.730000000000018,83,5,1.93,MZ,2023-06-28
122,dhamtari,20.7072,81.5497,25.160000000000025,84,100,2.73,IN,2023-06-28
123,avarua,-21.2078,-159.775,27.03000000000003,89,40,2.57,CK,2023-06-28
124,bredasdorp,-34.5322,20.0403,10.930000000000007,84,11,2.52,ZA,2023-06-28
125,alice springs,-23.7,133.8833,12.900000000000034,53,100,25.48,AU,2023-06-28
126,tralee,52.2704,-9.7026,13.689999999999998,76,44,4.29,IE,2023-06-28
127,basco,20.4487,121.9702,28.200000000000045,85,100,7.79,PH,2023-06-28
128,ancud,-41.8697,-73.8203,8.400000000000034,80,100,2.22,CL,2023-06-28
129,ubinskoye,55.3068,79.6802,11.25,96,100,6.8,RU,2023-06-28
130,labytnangi,66.6572,66.4183,6.28000000000003,67,48,3.01,RU,2023-06-28
131,invercargill,-46.4,168.35,8.210000000000036,85,80,3.42,NZ,2023-06-28
132,rio grande city,26.3798,-98.8203,38.82000000000005,22,0,8.02,US,2023-06-28
133,san antonio de pale,-1.4014,5.6325,24.83000000000004,77,100,5.78,GQ,2023-06-28
134,kapa'a,22.0752,-159.319,28.180000000000007,77,75,6.17,US,2023-06-28
135,iskateley,67.6803,53.1512,7.150000000000034,71,100,1.41,RU,2023-06-28
136,san julian,21.0167,-102.1667,29.79000000000002,20,14,3.54,MX,2023-06-28
137,sao vicente,-23.9631,-46.3919,29.590000000000032,40,0,1.54,BR,2023-06-28
138,blackmans bay,-43.0167,147.3167,5.2900000000000205,82,91,3.82,AU,2023-06-28
139,weno,7.4515,151.8468,27.970000000000027,83,100,4.12,FM,2023-06-28
140,duekoue,6.7472,-7.3496,23.04000000000002,87,100,1.03,CI,2023-06-28
141,sinabang,2.4803,96.3801,26.220000000000027,83,99,1.81,ID,2023-06-28
142,fort bragg,35.139,-79.006,31.920000000000016,43,40,2.57,US,2023-06-28
143,zapata,26.9073,-99.2714,40.06,21,0,5.14,US,2023-06-28
144,huilong,31.8111,121.655,25.960000000000036,90,100,4.0,CN,2023-06-28
145,waynesville,35.4887,-82.9887,28.75,53,0,1.34,US,2023-06-28
146,mermoz boabab,14.7065,-17.4758,28.310000000000002,76,91,3.52,SN,2023-06-28
147,pico truncado,-46.7949,-67.9573,4.330000000000041,57,100,2.4,AR,2023-06-28
148,begun,24.9833,75.0,25.07000000000005,86,100,2.87,IN,2023-06-28
149,hammerfest,70.6634,23.6821,9.25,87,75,3.09,NO,2023-06-28
150,yuzhno-kurilsk,44.0306,145.8556,13.610000000000014,100,100,1.53,RU,2023-06-28
151,jebrail,39.3992,47.0283,21.80000000000001,54,12,1.84,AZ,2023-06-28
152,broken hill,-31.95,141.4333,5.53000000000003,97,8,4.78,AU,2023-06-28
153,tura,25.5198,90.2201,23.340000000000032,98,94,3.15,IN,2023-06-28
154,shiyan,32.6475,110.7781,23.30000000000001,95,100,1.47,CN,2023-06-28
155,hailin,44.5833,129.4167,17.49000000000001,95,94,0.82,CN,2023-06-28
156,las heras,-46.5419,-68.9359,3.6899999999999977,63,100,1.85,AR,2023-06-28
157,popondetta,-8.7537,148.2534,21.04000000000002,83,58,1.36,PG,2023-06-28
158,balabac,7.9868,117.0645,27.370000000000005,80,55,2.2,PH,2023-06-28
159,kone,-21.0595,164.8658,15.689999999999998,80,6,1.03,NC,2023-06-28
160,minot,48.2325,-101.2963,28.120000000000005,39,75,2.57,US,2023-06-28
161,mbanza kongo,-6.267,14.2401,20.04000000000002,78,7,1.2,AO,2023-06-28
162,miramichi,47.0043,-65.4654,22.890000000000043,76,100,5.86,CA,2023-06-28
163,monahans,31.5943,-102.8926,41.379999999999995,15,1,0.45,US,2023-06-28
164,turpan,42.9333,89.1667,32.54000000000002,18,61,2.44,CN,2023-06-28
165,aswan,24.0934,32.907,37.610000000000014,8,0,5.14,EG,2023-06-28
166,labrador city,52.9463,-66.9114,14.950000000000045,94,100,5.66,CA,2023-06-28
167,coquimbo,-29.9533,-71.3436,16.850000000000023,72,0,7.2,CL,2023-06-28
168,antalaha,-14.9003,50.2788,19.07000000000005,80,4,3.19,MG,2023-06-28
169,luanda,-8.8368,13.2343,22.0,73,75,3.09,AO,2023-06-28
170,nemuro,43.3236,145.575,12.75,99,100,3.84,JP,2023-06-28
171,zinjibar,13.1287,45.3807,32.04000000000002,68,88,0.7,YE,2023-06-28
172,hithadhoo,-0.6,73.0833,27.78000000000003,61,65,1.95,MV,2023-06-28
173,fort-shevchenko,44.5086,50.263,24.650000000000034,58,0,3.89,KZ,2023-06-28
174,fonte boa,-2.4959,-66.2662,31.129999999999995,59,94,1.97,BR,2023-06-28
175,romorantin-lanthenay,47.4167,1.8333,22.810000000000002,68,32,0.0,FR,2023-06-28
176,zuyevka,58.405,51.1335,13.300000000000011,92,62,1.78,RU,2023-06-28
177,arno,60.1167,18.6333,17.660000000000025,76,5,2.22,SE,2023-06-28
178,oriximina,-1.7656,-55.8661,29.930000000000007,55,86,1.76,BR,2023-06-28
179,takoradi,4.8845,-1.7554,24.120000000000005,91,82,3.3,GH,2023-06-28
180,puerto asis,0.5133,-76.5007,22.140000000000043,98,100,0.86,CO,2023-06-28
181,gilgit,35.9221,74.3087,22.77000000000004,75,99,1.08,PK,2023-06-28
182,beira,-19.8436,34.8389,22.05000000000001,83,20,3.13,MZ,2023-06-28
183,luba,3.4568,8.5547,25.710000000000036,86,98,3.61,GQ,2023-06-28
184,callao,-12.0667,-77.15,23.160000000000025,60,0,5.14,PE,2023-06-28
185,port lincoln,-34.7333,135.8667,11.390000000000043,70,100,3.96,AU,2023-06-28
186,keflavik,64.0049,-22.5624,9.240000000000009,87,75,13.38,IS,2023-06-28
187,karratha,-20.7377,116.8463,14.620000000000005,49,0,6.43,AU,2023-06-28
188,udachny,66.4167,112.4,11.360000000000014,57,100,2.11,RU,2023-06-28
189,jamestown,42.097,-79.2353,21.400000000000034,78,100,3.09,US,2023-06-28
190,vila franca do campo,37.7167,-25.4333,22.230000000000018,86,95,6.04,PT,2023-06-28
191,pisco,-13.7,-76.2167,21.03000000000003,68,0,4.12,PE,2023-06-28
192,touros,-5.1989,-35.4608,24.99000000000001,89,18,6.36,BR,2023-06-28
193,dongtai,32.8523,120.3095,26.970000000000027,84,100,3.82,CN,2023-06-28
194,nova vicosa,-17.8919,-39.3719,22.980000000000018,82,0,3.03,BR,2023-06-28
195,crane,31.3974,-102.3501,39.19,10,2,10.93,US,2023-06-28
196,noosa heads,-26.3833,153.15,21.170000000000016,73,100,6.02,AU,2023-06-28
197,glens falls north,43.3351,-73.6825,24.79000000000002,84,100,2.57,US,2023-06-28
198,dongola,19.1667,30.4833,34.650000000000034,10,92,4.65,SD,2023-06-28
199,bardsir,29.9227,56.5743,27.99000000000001,21,2,2.68,IR,2023-06-28
200,prado,-17.3411,-39.2208,22.420000000000016,87,10,3.29,BR,2023-06-28
201,olonkinbyen,70.9221,-8.7187,5.560000000000002,98,100,5.8,SJ,2023-06-28
202,hawaiian paradise park,19.5933,-154.9731,27.07000000000005,72,20,2.06,US,2023-06-28
203,remire-montjoly,4.9167,-52.2667,26.02000000000004,89,100,2.06,GF,2023-06-28
204,irati,-25.4672,-50.6511,18.58000000000004,68,0,1.29,BR,2023-06-28
205,kalianget,-7.05,113.9333,26.350000000000023,82,59,3.15,ID,2023-06-28
206,port elizabeth,-33.918,25.5701,12.950000000000045,97,0,2.06,ZA,2023-06-28
207,eilat,29.5581,34.9482,33.910000000000025,31,0,9.77,IL,2023-06-28
208,alofi,-19.0595,-169.9187,24.939999999999998,73,29,4.12,NU,2023-06-28
209,geraldton,-28.7667,114.6,6.230000000000018,87,0,0.0,AU,2023-06-28
210,concepcion,-36.827,-73.0498,10.890000000000043,82,0,5.14,CL,2023-06-28
211,trairi,-3.2778,-39.2689,27.980000000000018,71,4,4.88,BR,2023-06-28
212,dzhankoy,45.7167,34.4,20.05000000000001,71,6,1.96,UA,2023-06-28
213,daru,-9.0763,143.2092,23.730000000000018,79,11,4.06,PG,2023-06-28
214,wuwei,37.9281,102.6414,19.49000000000001,41,90,2.08,CN,2023-06-28
215,argo,37.6333,22.7333,26.55000000000001,63,0,1.73,GR,2023-06-28
216,hassi messaoud,31.6804,6.0729,37.920000000000016,13,0,2.06,DZ,2023-06-28
217,khandyga,62.6667,135.6,19.08000000000004,89,83,1.66,RU,2023-06-28
218,kimbe,-5.5502,150.1429,23.910000000000025,90,90,1.9,PG,2023-06-28
219,coro,11.4045,-69.6734,29.140000000000043,74,59,6.41,VE,2023-06-28
220,chillicothe,39.3331,-82.9824,29.439999999999998,50,40,0.0,US,2023-06-28
221,planaltina,-15.4528,-47.6142,23.910000000000025,29,0,2.42,BR,2023-06-28
222,nampula,-15.1165,39.2666,18.970000000000027,72,20,1.31,MZ,2023-06-28
223,vilyuchinsk,52.9306,158.4028,12.150000000000034,95,90,0.72,RU,2023-06-28
224,talnakh,69.4865,88.3972,10.670000000000016,67,9,1.36,RU,2023-06-28
225,shimoda,34.6667,138.95,25.060000000000002,83,41,6.97,JP,2023-06-28
226,sai buri,6.7013,101.6168,25.450000000000045,87,97,1.82,TH,2023-06-28
227,kismayo,-0.3582,42.5454,25.010000000000048,82,49,6.44,SO,2023-06-28
228,guerrero negro,27.9769,-114.0611,21.470000000000027,60,9,8.06,MX,2023-06-28
229,ola,59.5833,151.2833,12.32000000000005,87,49,0.36,RU,2023-06-28
230,kegeyli shahar,42.7767,59.6078,28.05000000000001,25,60,5.09,UZ,2023-06-28
231,bardai,11.65,7.2333,26.57000000000005,57,43,3.9,NG,2023-06-28
232,upata,8.0086,-62.3989,27.879999999999995,51,77,2.04,VE,2023-06-28
233,newman,37.3138,-121.0208,34.450000000000045,16,0,1.5,US,2023-06-28
234,khasab,26.1799,56.2477,33.29000000000002,67,58,1.78,OM,2023-06-28
235,okha,53.5739,142.9478,8.53000000000003,94,100,4.24,RU,2023-06-28
236,tolanaro,-25.0319,46.9987,16.04000000000002,94,0,0.0,MG,2023-06-28
237,lata,40.1629,-8.3327,24.950000000000045,70,0,2.02,PT,2023-06-28
238,san lorenzo de esmeraldas,1.2883,-78.8369,29.200000000000045,70,24,3.58,EC,2023-06-28
239,bafq,31.6128,55.4107,34.450000000000045,11,0,1.33,IR,2023-06-28
240,mossel bay,-34.1831,22.146,11.960000000000036,72,92,2.77,ZA,2023-06-28
241,saint-gregoire,48.15,-1.6833,22.970000000000027,53,0,2.06,FR,2023-06-28
242,banda aceh,5.5577,95.3222,26.80000000000001,79,93,3.69,ID,2023-06-28
243,zaozersk,69.4005,32.4476,8.189999999999998,80,20,4.02,RU,2023-06-28
244,whangarei,-35.7317,174.3239,11.54000000000002,82,5,4.13,NZ,2023-06-28
245,taungoo,18.9333,96.4333,25.010000000000048,92,100,1.46,MM,2023-06-28
246,bac lieu,9.285,105.7244,26.700000000000045,87,94,3.59,VN,2023-06-28
247,robbio,45.2906,8.5911,26.650000000000034,75,72,3.82,IT,2023-06-28
248,san antonio,29.4241,-98.4936,39.58000000000004,34,0,5.66,US,2023-06-28
249,cururupu,-1.8283,-44.8683,28.410000000000025,72,55,1.72,BR,2023-06-28
250,port augusta,-32.5,137.7667,10.460000000000036,83,89,3.59,AU,2023-06-28
251,westport,41.1415,-73.3579,27.939999999999998,75,0,4.12,US,2023-06-28
252,happy valley-goose bay,53.3168,-60.3315,25.170000000000016,61,75,7.72,CA,2023-06-28
253,puerto baquerizo moreno,-0.9,-89.6,28.55000000000001,61,20,6.69,EC,2023-06-28
254,makurazaki,31.2667,130.3167,24.360000000000014,91,100,4.16,JP,2023-06-28
255,greenville,35.6127,-77.3663,31.180000000000007,51,100,0.89,US,2023-06-28
256,nadi,-17.8,177.4167,17.0,88,20,3.09,FJ,2023-06-28
257,portsmouth,50.799,-1.0913,21.53000000000003,88,68,2.24,GB,2023-06-28
258,zakynthos,37.7914,20.8953,25.620000000000005,65,20,1.54,GR,2023-06-28
259,ciudad lazaro cardenas,17.9583,-102.2,31.600000000000023,59,7,5.75,MX,2023-06-28
260,barhi,23.9,80.8,26.510000000000048,83,96,5.76,IN,2023-06-28
261,nova sintra,14.8667,-24.7167,21.220000000000027,80,4,7.23,CV,2023-06-28
262,chernyshevsk,52.5243,117.0174,12.230000000000018,97,100,4.68,RU,2023-06-28
263,almeirim,-1.5233,-52.5817,30.27000000000004,59,82,1.59,BR,2023-06-28
264,kavieng,-2.5744,150.7967,26.360000000000014,80,69,0.78,PG,2023-06-28
265,vallegrande,-18.4897,-64.1069,16.210000000000036,63,50,3.19,BO,2023-06-28
266,panama city beach,30.1766,-85.8055,36.07000000000005,65,40,4.63,US,2023-06-28
267,challapata,-18.9,-66.7667,13.120000000000005,9,0,2.19,BO,2023-06-28
268,ribeira grande,38.5167,-28.7,24.32000000000005,57,20,11.62,PT,2023-06-28
269,california city,35.1258,-117.9859,31.590000000000032,17,0,7.72,US,2023-06-28
270,dunedin,-45.8742,170.5036,9.890000000000043,73,100,9.39,NZ,2023-06-28
271,kasempa,-13.4584,25.8338,17.110000000000014,45,0,2.25,ZM,2023-06-28
272,atar,20.5169,-13.0499,38.879999999999995,9,69,3.4,MR,2023-06-28
273,kingston,17.997,-76.7936,31.53000000000003,58,40,6.17,JM,2023-06-28
274,angaur state,6.906,134.13,28.010000000000048,75,99,1.08,PW,2023-06-28
275,port pirie,-33.1833,138.0167,9.850000000000023,76,95,3.16,AU,2023-06-28
276,morondava,-20.2833,44.2833,20.390000000000043,75,0,3.77,MG,2023-06-28
277,ta`u,-14.2336,-169.5144,26.890000000000043,77,76,0.69,AS,2023-06-28
278,ballycastle,55.2044,-6.243,12.680000000000007,83,8,4.71,GB,2023-06-28
279,arroio dos ratos,-30.0772,-51.7292,13.890000000000043,93,100,2.06,BR,2023-06-28
280,kiunga,-6.1219,141.2906,22.33000000000004,99,100,1.07,PG,2023-06-28
281,bonthe,7.5264,-12.505,25.370000000000005,79,100,4.46,SL,2023-06-28
282,susuman,62.7833,148.1667,18.310000000000002,72,5,1.28,RU,2023-06-28
283,chonchi,-42.6128,-73.8092,9.510000000000048,86,100,1.45,CL,2023-06-28
284,tasqala,51.1167,50.3167,14.610000000000014,68,5,3.86,KZ,2023-06-28
285,antofagasta,-23.65,-70.4,18.600000000000023,67,0,2.25,CL,2023-06-28
286,nar'yan-mar,67.6713,53.087,7.220000000000027,71,100,1.46,RU,2023-06-28
287,ujae,8.9322,165.7642,28.25,78,100,8.64,MH,2023-06-28
288,porto novo,6.4965,2.6036,25.900000000000034,94,100,2.35,BJ,2023-06-28
289,mil'kovo,55.6078,37.7956,17.25,97,100,2.6,RU,2023-06-28
290,alesund,62.4723,6.1549,17.170000000000016,88,100,5.14,NO,2023-06-28
291,caleta de carquin,-11.0925,-77.6267,22.439999999999998,68,4,4.15,PE,2023-06-28
292,batticaloa,7.7102,81.6924,27.310000000000002,74,58,2.6,LK,2023-06-28
293,constantia,44.1833,28.65,15.390000000000043,87,100,5.46,RO,2023-06-28
294,lebu,-37.6167,-73.65,10.590000000000032,75,100,4.65,CL,2023-06-28
295,choix,26.7092,-108.3219,38.68000000000001,29,0,4.41,MX,2023-06-28
296,kirensk,57.7853,108.1119,11.420000000000016,99,100,2.22,RU,2023-06-28
297,rano,11.5491,8.5746,25.25,67,41,2.91,NG,2023-06-28
298,mejit,10.2753,170.8646,27.5,78,100,8.78,MH,2023-06-28
299,fort pierce,27.4467,-80.3256,35.59000000000003,61,40,6.26,US,2023-06-28
300,cooper's town,26.8667,-77.5167,28.25,75,0,4.63,BS,2023-06-28
301,la sarre,48.8002,-79.1996,22.390000000000043,31,0,3.08,CA,2023-06-28
302,port blair,11.6667,92.75,27.02000000000004,94,40,0.51,IN,2023-06-28
303,zavitinsk,50.1167,129.45,18.400000000000034,95,95,2.32,RU,2023-06-28
304,jalai nur,49.45,117.7,10.03000000000003,87,67,1.96,CN,2023-06-28
305,pelabuhanratu,-6.9875,106.5514,25.200000000000045,89,93,2.5,ID,2023-06-28
306,mahaddayweyne,2.9726,45.5347,23.640000000000043,86,54,5.5,SO,2023-06-28
307,uige,-7.6087,15.0613,18.970000000000027,75,2,0.77,AO,2023-06-28
308,champerico,14.3,-91.9167,33.30000000000001,67,42,6.67,GT,2023-06-28
309,port saint john's,-31.6229,29.5448,18.670000000000016,85,42,4.85,ZA,2023-06-28
310,almodovar,37.4959,-8.0937,24.710000000000036,33,0,5.75,PT,2023-06-28
311,bandarbeyla,9.4942,50.8122,24.430000000000007,81,98,14.85,SO,2023-06-28
312,afonso bezerra,-5.4983,-36.5056,28.54000000000002,59,55,8.03,BR,2023-06-28
313,linden,6.0,-58.3,28.710000000000036,77,100,1.73,GY,2023-06-28
314,makoua,0.0069,15.6333,24.57000000000005,80,95,1.44,CG,2023-06-28
315,howrah,22.5892,88.3103,27.0,94,75,2.57,IN,2023-06-28
316,arraial do cabo,-22.9661,-42.0278,26.980000000000018,69,0,3.6,BR,2023-06-28
317,howard springs,-12.497,131.047,24.950000000000045,85,8,3.14,AU,2023-06-28
318,dakhla,23.6848,-15.958,24.010000000000048,83,75,8.75,EH,2023-06-28
319,novo aripuana,-5.1206,-60.3797,34.25,34,11,1.76,BR,2023-06-28
320,hobyo,5.3505,48.5268,25.340000000000032,83,97,11.68,SO,2023-06-28
321,shenjiamen,29.9576,122.298,24.82000000000005,95,100,10.76,CN,2023-06-28
322,inverell,-29.7833,151.1167,9.260000000000048,90,100,0.89,AU,2023-06-28
323,jayapura,-2.5333,140.7,23.660000000000025,90,81,2.39,ID,2023-06-28
324,ulanhot,46.0833,122.0833,17.720000000000027,94,16,0.49,CN,2023-06-28
325,moose jaw,50.4001,-105.5344,25.150000000000034,44,75,5.66,CA,2023-06-28
326,nadym,65.5333,72.5167,6.990000000000009,76,92,6.66,RU,2023-06-28
327,haiku-pauwela,20.9219,-156.3051,26.129999999999995,68,20,8.23,US,2023-06-28
328,acajutla,13.5928,-89.8275,29.840000000000032,70,49,3.52,SV,2023-06-28
329,upington,-28.4478,21.2561,13.210000000000036,67,100,3.6,ZA,2023-06-28
330,pocos de caldas,-21.7878,-46.5614,17.470000000000027,57,0,1.6,BR,2023-06-28
331,valparaiso,-33.0393,-71.6273,16.129999999999995,72,0,2.06,CL,2023-06-28
332,madimba,-10.4,40.3333,22.620000000000005,73,20,5.14,TZ,2023-06-28
333,aldinga beach,-35.2793,138.4604,9.260000000000048,79,98,3.65,AU,2023-06-28
334,al bardiyah,31.7561,25.0865,23.980000000000018,81,0,4.82,LY,2023-06-28
335,djibo,14.1022,-1.6306,33.960000000000036,38,77,3.41,BF,2023-06-28
336,ust-nera,64.5667,143.2,19.860000000000014,68,2,1.75,RU,2023-06-28
337,laguna,38.421,-121.4238,30.75,46,0,3.09,US,2023-06-28
338,san patricio,28.017,-97.5169,36.400000000000034,39,0,8.19,US,2023-06-28
339,urzhar,47.093,81.6294,14.360000000000014,58,18,2.68,KZ,2023-06-28
340,charters towers,-20.1,146.2667,16.930000000000007,65,55,4.22,AU,2023-06-28
341,smithers,54.7804,-127.1743,24.180000000000007,43,75,1.03,CA,2023-06-28
342,mendi,-6.1761,143.6513,12.470000000000027,97,58,0.63,PG,2023-06-28
343,belousovka,50.1339,82.5239,14.470000000000027,88,100,2.0,KZ,2023-06-28
344,puerto aysen,-45.4,-72.7,5.020000000000039,93,100,0.0,CL,2023-06-28
345,livingston,55.9029,-3.5226,16.200000000000045,67,20,3.6,GB,2023-06-28
346,pavlikeni,43.2428,25.3219,15.930000000000007,90,100,2.3,BG,2023-06-28
347,boa vista,2.8197,-60.6733,31.99000000000001,51,40,2.57,BR,2023-06-28
348,afaahiti,-17.75,-149.2833,27.930000000000007,81,41,8.91,PF,2023-06-28
349,aflou,34.1128,2.1023,26.140000000000043,19,47,2.57,DZ,2023-06-28
350,minas de marcona,-15.2119,-75.1103,18.510000000000048,55,0,5.36,PE,2023-06-28
351,catio,11.2833,-15.25,25.620000000000005,86,100,3.45,GW,2023-06-28
352,mlyniv,50.509,25.6168,14.400000000000034,95,100,5.74,UA,2023-06-28
353,lompoc,34.6391,-120.4579,22.140000000000043,76,2,2.68,US,2023-06-28
354,khrystynivka,48.8249,29.9681,13.060000000000002,75,41,3.74,UA,2023-06-28
355,kirakira,-10.4544,161.9205,25.74000000000001,87,92,4.07,SB,2023-06-28
356,st. paul,44.9444,-93.0933,29.29000000000002,58,75,8.23,US,2023-06-28
357,lisala,2.15,21.5167,22.480000000000018,96,56,1.02,CD,2023-06-28
358,mineros,-17.1167,-63.2333,20.710000000000036,93,100,1.69,BO,2023-06-28
359,kulhudhuffushi,6.6221,73.07,27.650000000000034,77,27,5.88,MV,2023-06-28
360,yangzhou,32.3972,119.4358,29.920000000000016,74,90,4.27,CN,2023-06-28
361,somerset east,-32.7217,25.588,12.57000000000005,48,100,2.18,ZA,2023-06-28
362,narvik,68.4384,17.4272,17.430000000000007,81,50,1.25,NO,2023-06-28
363,hamilton,39.1834,-84.5333,29.930000000000007,52,0,1.54,US,2023-06-28
364,hinton,53.4001,-117.5857,26.560000000000002,34,51,1.01,CA,2023-06-28
365,baharly,38.4362,57.4316,33.97000000000003,20,97,2.97,TM,2023-06-28
366,tutoia,-2.7619,-42.2744,27.350000000000023,75,11,3.57,BR,2023-06-28
367,puerto deseado,-47.7503,-65.8938,6.560000000000002,70,40,3.33,AR,2023-06-28
368,kruisfontein,-34.0033,24.7314,11.600000000000023,58,100,3.45,ZA,2023-06-28
369,road town,18.4167,-64.6167,29.05000000000001,78,20,3.09,VG,2023-06-28
370,kapoeta,4.7717,33.5903,26.939999999999998,51,100,0.8,SS,2023-06-28
371,inari,68.906,27.0288,18.110000000000014,69,88,3.71,FI,2023-06-28
372,tual,-5.6667,132.75,26.900000000000034,83,80,7.62,ID,2023-06-28
373,kapuskasing,49.4169,-82.4331,23.0,17,20,1.03,CA,2023-06-28
374,kangding,30.0513,101.9603,15.770000000000039,98,100,1.05,CN,2023-06-28
375,lubango,-14.9172,13.4925,10.370000000000005,42,54,0.46,AO,2023-06-28
376,cockburn town,21.4612,-71.1419,28.420000000000016,73,13,4.38,TC,2023-06-28
377,juneau,58.3019,-134.4197,16.0,91,100,4.63,US,2023-06-28
378,recreo,-29.2818,-65.061,20.720000000000027,21,10,6.89,AR,2023-06-28
379,pobugskoye,48.1658,30.5927,16.08000000000004,71,100,6.78,UA,2023-06-28
380,salinopolis,-0.6136,-47.3561,27.379999999999995,83,78,3.26,BR,2023-06-28
381,mokhsogollokh,61.4681,128.9203,18.99000000000001,89,1,1.36,RU,2023-06-28
382,kemijarvi,66.7131,27.4306,18.670000000000016,63,73,0.29,FI,2023-06-28
383,marsabit,2.3284,37.9899,20.890000000000043,51,6,7.61,KE,2023-06-28
384,gulf shores,30.246,-87.7008,36.43000000000001,63,40,5.14,US,2023-06-28
385,saint croix,17.7397,-64.7388,31.25,70,20,4.63,VI,2023-06-28
386,usinsk,65.9939,57.5281,10.080000000000041,65,100,4.05,RU,2023-06-28
387,akureyri,65.6835,-18.0878,9.960000000000036,87,100,2.57,IS,2023-06-28
388,bad kreuznach,49.8333,7.8667,23.03000000000003,68,53,1.4,DE,2023-06-28
389,saint-jean-de-monts,46.7833,-2.0667,18.54000000000002,83,100,5.22,FR,2023-06-28
390,victoria falls,-17.9235,25.843,15.640000000000043,56,5,1.79,ZW,2023-06-28
391,kaya,13.0917,-1.0844,31.660000000000025,49,100,2.61,BF,2023-06-28
392,hilo,19.7297,-155.09,27.189999999999998,68,20,2.24,US,2023-06-28
393,cabo san lucas,22.8909,-109.9124,35.900000000000034,43,0,3.6,MX,2023-06-28
394,torbat-e jam,35.244,60.6225,28.420000000000016,18,0,5.5,IR,2023-06-28
395,island harbour,50.724,-1.2758,20.640000000000043,89,56,2.24,GB,2023-06-28
396,igrim,63.1906,64.4162,8.260000000000048,94,100,2.52,RU,2023-06-28
397,imeko,7.45,2.85,22.390000000000043,98,100,2.4,NG,2023-06-28
398,vadstena,58.4486,14.8897,22.939999999999998,71,16,3.39,SE,2023-06-28
399,kalabo,-14.97,22.6814,18.930000000000007,32,9,1.55,ZM,2023-06-28
400,rabaul,-4.1967,152.1721,26.03000000000003,81,100,2.65,PG,2023-06-28
401,holualoa,19.6228,-155.9522,24.910000000000025,75,40,3.09,US,2023-06-28
402,kerikeri,-35.2268,173.9474,11.060000000000002,90,44,3.72,NZ,2023-06-28
403,san pedro pochutla,15.7333,-96.4667,33.170000000000016,60,100,3.71,MX,2023-06-28
404,wellington,-41.2866,174.7756,7.150000000000034,95,45,1.03,NZ,2023-06-28
405,sisimiut,66.9395,-53.6735,5.670000000000016,81,100,6.63,GL,2023-06-28
406,dongsheng,39.8161,109.9776,18.710000000000036,31,0,1.58,CN,2023-06-28
407,bangassou,4.7413,22.8184,21.390000000000043,96,46,1.02,CF,2023-06-28
408,ayaviri,-14.8864,-70.5889,15.160000000000025,9,0,1.19,PE,2023-06-28
409,belmonte,-15.8631,-38.8828,23.5,84,20,2.85,BR,2023-06-28
410,hirara,24.8,125.2833,28.150000000000034,83,20,7.2,JP,2023-06-28
411,rio grande,-32.035,-52.0986,16.060000000000002,74,8,5.42,BR,2023-06-28
412,dryden,49.7833,-92.7503,18.160000000000025,94,100,2.57,CA,2023-06-28
413,monster,52.0258,4.175,21.100000000000023,74,100,2.57,NL,2023-06-28
414,saldanha,-33.0117,17.9442,12.03000000000003,80,85,3.57,ZA,2023-06-28
415,togur,58.3631,82.8265,11.770000000000039,98,100,1.17,RU,2023-06-28
416,manokwari,-0.8667,134.0833,25.57000000000005,77,76,1.36,ID,2023-06-28
417,hovd,48.0056,91.6419,19.920000000000016,30,98,3.58,MN,2023-06-28
418,kuta,-8.7233,115.1723,25.970000000000027,88,75,2.68,ID,2023-06-28
419,bucerias,20.75,-105.3333,33.879999999999995,62,75,4.63,MX,2023-06-28
420,fort st. john,56.2499,-120.8529,22.939999999999998,56,75,1.54,CA,2023-06-28
421,muang xay,20.7,101.9833,21.220000000000027,99,38,0.69,LA,2023-06-28
422,karanja,20.4833,77.4833,26.04000000000002,78,100,6.01,IN,2023-06-28
423,buala,-8.145,159.5921,26.600000000000023,86,100,3.24,SB,2023-06-28
424,schuyler,42.4167,-76.883,20.980000000000018,87,100,3.58,US,2023-06-28
425,as sulayyil,20.4607,45.5779,35.14000000000004,9,20,4.09,SA,2023-06-28
426,nogliki,51.8333,143.1667,8.240000000000009,96,100,4.27,RU,2023-06-28
427,don sak,9.3168,99.6918,26.720000000000027,83,90,3.01,TH,2023-06-28
428,uirauna,-6.5183,-38.4122,28.900000000000034,46,100,4.41,BR,2023-06-28
429,nako,31.8814,78.627,12.370000000000005,80,75,2.61,IN,2023-06-28
430,owensboro,37.7742,-87.1133,30.99000000000001,51,0,2.57,US,2023-06-28
431,santana,-0.0583,-51.1817,29.100000000000023,84,75,3.09,BR,2023-06-28
432,santa ana,33.7456,-117.8678,28.560000000000002,66,40,4.12,US,2023-06-28
433,leeton,-34.5667,146.4,6.610000000000014,95,3,3.03,AU,2023-06-28
434,parang,7.3704,124.2697,23.860000000000014,94,100,1.09,PH,2023-06-28
435,olinda,-8.0089,-34.8553,27.850000000000023,74,75,5.14,BR,2023-06-28
436,yaya,56.206,86.44,12.82000000000005,91,10,5.93,RU,2023-06-28
437,tagiura,32.8817,13.3506,25.010000000000048,72,0,3.57,LY,2023-06-28
438,yeppoon,-23.1333,150.7333,14.879999999999995,73,26,2.65,AU,2023-06-28
439,villa gesell,-37.2639,-56.973,11.700000000000045,70,10,6.85,AR,2023-06-28
440,moree,-29.4667,149.85,10.53000000000003,88,100,5.08,AU,2023-06-28
441,harper,4.375,-7.7169,24.410000000000025,82,86,4.33,LR,2023-06-28
442,manzanillo,20.3433,-77.1167,31.49000000000001,60,12,1.04,CU,2023-06-28
443,brandfort,-28.7001,26.4597,9.670000000000016,32,92,3.58,ZA,2023-06-28
444,bridgewater,44.3835,-64.5155,20.620000000000005,98,100,5.66,CA,2023-06-28
445,shigony,53.3875,48.6777,15.800000000000011,69,100,0.45,RU,2023-06-28
446,libreville,0.3925,9.4537,25.010000000000048,78,40,4.12,GA,2023-06-28
447,jinchang,38.4953,102.1739,21.03000000000003,35,93,1.57,CN,2023-06-28
448,wynyard,-41.0,145.7167,6.660000000000025,80,25,4.38,AU,2023-06-28
449,asha,54.9973,57.2722,13.990000000000009,89,80,1.79,RU,2023-06-28
450,salacgriva,57.7536,24.3581,17.470000000000027,65,98,3.69,LV,2023-06-28
451,verkhniye kigi,55.4083,58.6044,14.79000000000002,79,98,2.78,RU,2023-06-28
452,codrington,-38.2667,141.9667,8.900000000000034,78,100,4.54,AU,2023-06-28
453,patterson,37.4716,-121.1297,34.43000000000001,23,0,3.18,US,2023-06-28
454,gubkinskiy,64.434,76.5026,13.5,72,100,3.39,RU,2023-06-28
455,timmins,48.4669,-81.3331,21.900000000000034,28,20,0.0,CA,2023-06-28
456,riverhead,40.917,-72.662,26.910000000000025,86,40,5.14,US,2023-06-28
457,myitkyina,25.3833,97.4,24.05000000000001,99,89,0.55,MM,2023-06-28
458,cannonvale,-20.2833,148.7,20.660000000000025,84,14,2.57,AU,2023-06-28
459,tangalle,6.024,80.7911,25.78000000000003,87,17,4.84,LK,2023-06-28
460,castillos,-34.1667,-53.8333,12.350000000000023,53,0,4.35,UY,2023-06-28
461,fumel,44.4986,0.9651,24.55000000000001,69,0,2.61,FR,2023-06-28
462,rumonge,-3.9736,29.4386,24.510000000000048,69,92,0.88,BI,2023-06-28
463,ulundi,-28.3352,31.4162,14.210000000000036,67,63,2.14,ZA,2023-06-28
464,catalhoyuk,37.6685,32.8269,21.120000000000005,42,80,4.79,TR,2023-06-28
465,la'ie,21.6477,-157.9253,28.03000000000003,71,5,4.92,US,2023-06-28
466,chernyshevskiy,63.0128,112.4714,17.52000000000004,47,80,5.31,RU,2023-06-28
467,mili,6.0815,171.735,26.010000000000048,89,100,7.58,MH,2023-06-28
468,umba,66.6871,34.3429,8.970000000000027,83,89,3.91,RU,2023-06-28
469,socorro,31.6546,-106.3033,39.06,12,20,3.6,US,2023-06-28
470,borogontsy,62.6683,131.1683,19.060000000000002,93,86,2.09,RU,2023-06-28
471,vallenar,-28.5708,-70.7581,26.99000000000001,20,1,2.46,CL,2023-06-28
472,balaipungut,1.05,101.2833,23.58000000000004,98,97,0.49,ID,2023-06-28
473,aparecida,-22.8469,-45.2297,28.83000000000004,34,0,1.54,BR,2023-06-28
474,alaghsas,17.0187,8.0168,32.94,28,96,2.07,NE,2023-06-28
475,erdenet,49.0333,104.0833,9.450000000000045,65,51,1.27,MN,2023-06-28
476,hotan,37.0997,79.9269,28.200000000000045,24,99,9.11,CN,2023-06-28
477,kavaratti,10.5669,72.642,27.850000000000023,78,100,7.18,IN,2023-06-28
478,n'zeto,-7.2312,12.8666,20.52000000000004,92,2,4.03,AO,2023-06-28
479,tamanrasset,22.785,5.5228,33.950000000000045,10,75,3.6,DZ,2023-06-28
480,odienne,9.51,-7.5692,23.950000000000045,85,99,1.2,CI,2023-06-28
481,nizao,18.25,-70.2,35.04000000000002,61,72,5.38,DO,2023-06-28
482,rongelap,11.1635,166.8941,27.680000000000007,81,94,8.47,MH,2023-06-28
483,lugovoye,42.9094,72.7178,16.980000000000018,44,8,1.21,KZ,2023-06-28
484,hereford,52.0568,-2.7148,20.03000000000003,88,100,1.5,GB,2023-06-28
485,san andres,12.5847,-81.7006,32.01000000000005,70,20,5.66,CO,2023-06-28
486,puerto el triunfo,13.2833,-88.55,34.51000000000005,68,96,3.75,SV,2023-06-28
487,miri,4.4148,114.0089,26.08000000000004,89,20,1.54,MY,2023-06-28
488,dvurechensk,56.5982,61.0953,16.210000000000036,71,70,3.55,RU,2023-06-28
489,siuna,13.7332,-84.7773,24.720000000000027,90,100,0.94,NI,2023-06-28
490,newport,51.5877,-2.9984,19.82000000000005,91,100,2.89,GB,2023-06-28
491,najran,17.4924,44.1277,31.360000000000014,14,98,1.27,SA,2023-06-28
492,sydney mines,46.2367,-60.2177,26.0,84,75,8.23,CA,2023-06-28
493,salamanca,40.8333,-6.0,26.879999999999995,34,0,2.27,ES,2023-06-28
494,skeldon,5.8833,-57.1333,28.410000000000025,76,23,2.66,GY,2023-06-28
495,darovskoy,58.77,47.9564,14.980000000000018,87,86,2.27,RU,2023-06-28
496,pajan,-1.5667,-80.4167,29.140000000000043,73,87,1.24,EC,2023-06-28
497,niquero,20.0431,-77.5828,29.390000000000043,71,28,1.97,CU,2023-06-28
498,gisborne,-38.6533,178.0042,12.129999999999995,70,18,5.66,NZ,2023-06-28
499,novaya igirma,57.1334,103.9112,9.740000000000009,78,100,0.88,RU,2023-06-28
500,gaoual,11.75,-13.2,25.5,91,98,2.07,GN,2023-06-28
501,colachel,8.1667,77.25,26.150000000000034,82,37,4.68,IN,2023-06-28
502,katabu,-4.9333,122.5167,24.100000000000023,93,98,1.25,ID,2023-06-28
503,ca mau,9.1769,105.15,25.80000000000001,90,97,1.83,VN,2023-06-28
504,florestopolis,-22.8633,-51.3872,22.30000000000001,67,0,1.39,BR,2023-06-28
505,dudinka,69.4058,86.1778,10.900000000000034,71,10,3.33,RU,2023-06-28
506,palmer,42.1584,-72.3287,26.060000000000002,68,100,1.34,US,2023-06-28
507,san luis de la loma,17.2706,-100.8939,31.640000000000043,59,28,3.66,MX,2023-06-28
508,queenstown,-31.8976,26.8753,8.870000000000005,78,85,1.8,ZA,2023-06-28
509,mount pearl,47.5166,-52.7813,24.189999999999998,79,75,5.14,CA,2023-06-28
510,kourou,5.1552,-52.6478,26.03000000000003,76,39,2.89,GF,2023-06-28
511,florence,43.7667,11.25,26.010000000000048,62,0,3.13,IT,2023-06-28
512,monrovia,6.3005,-10.7969,24.870000000000005,77,100,4.68,LR,2023-06-28
513,malacca,2.196,102.2405,26.02000000000004,96,20,1.03,MY,2023-06-28
514,nouadhibou,20.931,-17.0347,23.99000000000001,78,1,8.23,MR,2023-06-28
515,saipan,15.1355,145.701,27.390000000000043,100,0,2.06,MP,2023-06-28
516,nagqu,31.5,92.0,6.420000000000016,84,100,0.8,CN,2023-06-28
517,ardestan,33.3761,52.3694,33.160000000000025,11,1,3.84,IR,2023-06-28
518,sidi bouzid,35.0382,9.4849,33.05000000000001,22,6,2.41,TN,2023-06-28
519,la baneza,42.3003,-5.8977,25.890000000000043,46,6,4.54,ES,2023-06-28
520,ridder,50.355,83.5133,10.740000000000009,94,96,2.09,KZ,2023-06-28
521,beckley,37.7782,-81.1882,26.710000000000036,62,40,4.12,US,2023-06-28
522,tabou,4.423,-7.3528,24.360000000000014,82,81,3.75,CI,2023-06-28
523,conduaga,8.862,117.4893,26.260000000000048,87,97,1.73,PH,2023-06-28
524,sur,22.5667,59.5289,29.55000000000001,74,100,7.38,OM,2023-06-28
525,gadzhiyevo,69.2551,33.3362,8.25,82,16,5.21,RU,2023-06-28
526,aleg,17.0481,-13.9209,36.910000000000025,25,74,3.74,MR,2023-06-28
527,paracuru,-3.41,-39.0306,27.840000000000032,69,8,5.75,BR,2023-06-28
528,jumla,29.2747,82.1838,16.950000000000045,96,100,1.09,NP,2023-06-28
529,dunay,42.8803,132.3375,15.189999999999998,99,95,5.45,RU,2023-06-28
530,alo,7.4178,6.7371,22.78000000000003,97,67,1.6,NG,2023-06-28
531,wajir,1.7471,40.0573,28.02000000000004,54,93,8.35,KE,2023-06-28
532,chibougamau,49.9168,-74.3659,19.79000000000002,68,75,5.66,CA,2023-06-28
533,deniliquin,-35.5333,144.9667,3.410000000000025,88,5,3.45,AU,2023-06-28
534,fale old settlement,-9.3852,-171.2468,28.890000000000043,73,100,6.34,TK,2023-06-28
535,nantucket,41.2835,-70.0995,26.03000000000003,91,40,6.69,US,2023-06-28
536,natchitoches,31.7668,-93.1335,36.47000000000003,46,40,0.0,US,2023-06-28
537,mpanda,-6.3655,31.0409,21.100000000000023,50,80,0.4,TZ,2023-06-28
538,manaure,11.7751,-72.4445,31.360000000000014,62,33,6.61,CO,2023-06-28
539,masterton,-40.9597,175.6575,5.75,96,34,1.11,NZ,2023-06-28
540,sandakan,5.8402,118.1179,25.82000000000005,94,20,2.06,MY,2023-06-28
541,miranda,3.2499,-76.2281,29.07000000000005,63,98,1.05,CO,2023-06-28
542,nabire,-3.3667,135.4833,24.170000000000016,95,100,1.67,ID,2023-06-28
543,ramos arizpe,25.55,-100.9667,33.79000000000002,26,0,5.14,MX,2023-06-28
544,sovetskaya gavan',48.9723,140.2878,12.240000000000009,96,70,2.68,RU,2023-06-28
545,tan-tan,28.438,-11.1032,25.689999999999998,60,5,5.08,MA,2023-06-28
546,saudarkrokur,65.7461,-19.6394,7.240000000000009,91,100,1.23,IS,2023-06-28
547,trzcianka,53.0406,16.4563,15.32000000000005,92,0,4.07,PL,2023-06-28
548,joshimath,30.5667,79.5667,21.710000000000036,89,100,0.41,IN,2023-06-28
549,kenai,60.5544,-151.2583,13.050000000000011,89,100,5.14,US,2023-06-28
550,tomatlan,19.9333,-105.25,32.54000000000002,54,79,5.03,MX,2023-06-28
551,margherita,27.2833,95.6833,24.410000000000025,97,100,0.93,IN,2023-06-28
552,port shepstone,-30.7414,30.455,20.55000000000001,77,100,11.08,ZA,2023-06-28
553,shakhtinsk,49.71,72.5872,11.260000000000048,65,13,2.58,KZ,2023-06-28
554,vrangel',42.7297,133.0839,15.100000000000023,99,83,5.01,RU,2023-06-28
555,kashgar,39.4547,75.9797,19.560000000000002,72,40,5.0,CN,2023-06-28
556,smila,49.2224,31.8871,17.360000000000014,54,100,3.52,UA,2023-06-28
557,langepas,61.2544,75.2124,14.660000000000025,59,93,2.9,RU,2023-06-28
558,oistins,13.0667,-59.5333,30.05000000000001,79,40,6.17,BB,2023-06-28
559,bel ombre,-4.6167,55.4167,26.910000000000025,78,40,6.69,SC,2023-06-28
560,acapulco de juarez,16.8634,-99.8901,31.900000000000034,66,75,4.63,MX,2023-06-28
561,linhares,-19.3911,-40.0722,23.27000000000004,68,0,2.94,BR,2023-06-28
562,salalah,17.0151,54.0924,28.05000000000001,89,100,3.09,OM,2023-06-28
563,kayyerkan,69.3786,87.7439,10.720000000000027,81,10,2.03,RU,2023-06-28
564,gillette,44.2911,-105.5022,27.28000000000003,46,20,2.68,US,2023-06-28
565,kralendijk,12.15,-68.2667,31.99000000000001,62,20,5.14,BQ,2023-06-28
566,achinsk,56.2694,90.4993,13.720000000000027,92,90,4.36,RU,2023-06-28
567,qingdao,36.0986,120.3719,23.78000000000003,100,40,7.0,CN,2023-06-28
568,cadale,2.7603,46.3222,25.29000000000002,82,62,7.61,SO,2023-06-28
569,yeniseysk,58.4497,92.1703,13.5,91,100,2.67,RU,2023-06-28
570,islamorada,24.9243,-80.6278,31.110000000000014,81,79,1.34,US,2023-06-28
571,calama,-22.4667,-68.9333,25.27000000000004,8,0,8.23,CL,2023-06-28
572,el calafate,-50.3408,-72.2768,0.160000000000025,86,99,0.89,AR,2023-06-28
573,likiep,9.8251,169.3107,27.939999999999998,72,100,9.71,MH,2023-06-28
574,penzance,50.1186,-5.5371,17.379999999999995,80,55,6.31,GB,2023-06-28
575,pangoa,-12.1167,-73.0,28.410000000000025,55,70,1.58,PE,2023-06-28
576,muli,2.9167,73.5667,27.82000000000005,73,85,4.04,MV,2023-06-28
577,saint-pierre,-21.3393,55.4781,19.82000000000005,60,20,3.6,RE,2023-06-28
578,nosy varika,-20.5833,48.5333,19.04000000000002,87,67,2.04,MG,2023-06-28
579,zavallya,48.2135,30.0156,16.890000000000043,59,88,4.95,UA,2023-06-28
580,magadan,59.5667,150.8,12.79000000000002,86,55,0.19,RU,2023-06-28
581,chilecito,-29.1619,-67.4974,15.650000000000034,35,0,0.93,AR,2023-06-28
582,yorkton,51.2167,-102.4677,23.910000000000025,53,40,5.66,CA,2023-06-28
583,moa,20.6569,-74.9403,29.220000000000027,75,23,4.32,CU,2023-06-28
584,ploneour-lanvern,47.9,-4.2833,19.180000000000007,82,100,3.6,FR,2023-06-28
585,ewo,-0.8725,14.8206,27.930000000000007,58,100,1.61,CG,2023-06-28
586,ciudad constitucion,25.0369,-111.6644,35.18000000000001,24,0,5.47,MX,2023-06-28
587,vadso,70.0744,29.7487,9.490000000000009,87,75,4.12,NO,2023-06-28
588,maragogi,-9.0122,-35.2225,24.610000000000014,86,18,4.08,BR,2023-06-28
589,brisas de zicatela,15.8369,-97.0419,31.29000000000002,62,75,2.06,MX,2023-06-28
590,vila velha,-20.3297,-40.2925,24.970000000000027,76,0,5.14,BR,2023-06-28
591,keila,59.3036,24.4131,21.879999999999995,66,0,1.54,EE,2023-06-28
592,machilipatnam,16.1667,81.1333,30.0,68,100,6.97,IN,2023-06-28
593,guardamar del segura,38.0903,-0.6556,27.57000000000005,83,63,1.34,ES,2023-06-28
594,ostrov,57.3439,28.3537,17.850000000000023,87,100,2.72,RU,2023-06-28
595,archidona,37.0965,-4.3887,22.689999999999998,35,0,2.33,ES,2023-06-28
596,carutapera,-1.195,-46.02,26.52000000000004,91,71,1.53,BR,2023-06-28
597,pak chong,14.708,101.4161,24.430000000000007,87,50,1.61,TH,2023-06-28
